City_ID,City,Lat,Lng,Max Temp,Humidity,Cloudiness,Wind Speed,Country,Date
0,severnoye,56.3491,78.3619,23.92,51,39,5.11,RU,1690268895
1,badger,64.8,-147.5333,23.95,68,75,0.0,US,1690268895
2,port-aux-francais,-49.35,70.2167,3.07,65,100,6.55,TF,1690268896
3,polyarnyy,69.1989,33.4478,10.36,94,100,3.17,RU,1690268896
4,constantia,44.1833,28.65,29.38,53,10,7.18,RO,1690268645
5,puerto natales,-51.7236,-72.4875,-5.09,94,100,0.63,CL,1690268897
6,shingu,33.7333,135.9833,29.82,73,13,3.16,JP,1690268897
7,ilulissat,69.2167,-51.1,4.01,93,100,2.57,GL,1690268898
8,nueva helvecia,-34.3,-57.2333,5.92,96,3,4.45,UY,1690268898
9,puerto ayora,-0.7393,-90.3518,24.75,95,100,1.79,EC,1690268899
10,rongelap,11.1635,166.8941,28.67,78,100,7.33,MH,1690268899
11,waitangi,-43.9535,-176.5597,10.46,98,100,1.34,NZ,1690268899
12,papatowai,-46.5619,169.4708,6.67,81,34,8.34,NZ,1690268900
13,anadyr,64.75,177.4833,11.67,81,75,8.94,RU,1690268900
14,margaret river,-33.95,115.0667,14.43,89,100,4.15,AU,1690268901
15,port alfred,-33.5906,26.891,12.98,51,0,3.18,ZA,1690268901
16,edinburgh of the seven seas,-37.0676,-12.3116,14.95,82,100,16.53,SH,1690268902
17,awjilah,29.1081,21.2869,33.87,21,0,4.42,LY,1690268902
18,muroto-misakicho,33.2833,134.15,28.78,76,2,3.78,JP,1690268902
19,road town,18.4167,-64.6167,28.39,77,55,9.69,VG,1690268632
20,isafjordur,66.0755,-23.124,11.02,87,100,1.54,IS,1690268903
21,petropavlovsk-kamchatsky,53.0452,158.6483,22.1,56,75,5.0,RU,1690268904
22,whitehorse,60.7161,-135.0538,15.73,74,100,1.79,CA,1690268904
23,saint-joseph,-21.3667,55.6167,25.82,74,20,3.02,RE,1690268904
24,medyn',54.9692,35.8586,19.5,80,100,2.49,RU,1690268905
25,roudnice nad labem,50.4253,14.2618,20.9,76,100,2.8,CZ,1690268905
26,bilibino,68.0546,166.4372,11.87,89,100,0.61,RU,1690268906
27,minas de marcona,-15.2119,-75.1103,11.99,89,16,4.05,PE,1690268906
28,grytviken,-54.2811,-36.5092,-2.98,80,16,5.33,GS,1690268907
29,keuruu,62.2667,24.7,16.1,83,100,0.62,FI,1690268907
30,tosontsengel,48.7567,98.2839,19.19,34,100,6.46,MN,1690268907
31,kristiansund,63.1115,7.732,14.03,88,75,4.63,NO,1690268908
32,talara,-4.5772,-81.2719,21.32,84,3,6.64,PE,1690268909
33,adamstown,-25.066,-130.1015,20.7,73,85,3.36,PN,1690268909
34,glace bay,46.1969,-59.957,20.43,95,100,0.89,CA,1690268910
35,hawaiian paradise park,19.5933,-154.9731,24.73,96,40,2.06,US,1690268910
36,tarauaca,-8.1614,-70.7656,22.35,69,70,0.52,BR,1690268911
37,tual,-5.6667,132.75,24.48,78,100,10.3,ID,1690268911
38,invercargill,-46.4,168.35,7.15,77,100,8.77,NZ,1690268912
39,yellowknife,62.456,-114.3525,20.87,52,100,5.81,CA,1690268912
40,al mindak,20.1588,41.2834,28.97,13,32,3.54,SA,1690268913
41,nuuk,64.1835,-51.7216,8.34,76,0,6.17,GL,1690268914
42,georgetown,5.4112,100.3354,32.96,62,20,4.12,MY,1690268914
43,ginir,7.1333,40.7,20.83,58,8,2.85,ET,1690268914
44,plymouth,41.8334,-70.8328,22.59,89,75,2.57,US,1690268915
45,keyser,39.4409,-78.9739,19.41,94,74,1.16,US,1690268915
46,remire-montjoly,4.9167,-52.2667,23.02,100,65,0.0,GF,1690268916
47,nova sintra,14.8667,-24.7167,22.27,84,100,7.85,CV,1690268916
48,cidreira,-30.1811,-50.2056,17.31,99,100,2.63,BR,1690268917
49,hamilton,39.1834,-84.5333,20.42,94,20,1.54,US,1690268673
50,tiksi,71.6872,128.8694,5.38,74,47,3.11,RU,1690268917
51,jamestown,42.097,-79.2353,17.77,89,0,2.06,US,1690268918
52,novodvinsk,64.4165,40.8122,19.37,53,95,2.32,RU,1690268918
53,twon-brass,4.3151,6.2418,25.91,81,89,3.39,NG,1690268919
54,chamical,-30.36,-66.314,8.76,66,100,2.39,AR,1690268919
55,les anglais,18.3054,-74.2197,26.47,82,93,2.11,HT,1690268919
56,aripuana,-9.1667,-60.6333,19.85,59,8,0.84,BR,1690268920
57,margate,51.3813,1.3862,16.5,71,68,2.68,GB,1690268920
58,namibe,-15.1961,12.1522,17.2,85,99,1.45,AO,1690268921
59,howrah,22.5892,88.3103,33.0,70,75,4.12,IN,1690268649
60,avarua,-21.2078,-159.775,22.03,73,100,2.06,CK,1690268921
61,jiaozuo,35.2397,113.2331,39.59,27,5,4.72,CN,1690268922
62,itoman,26.1247,127.6694,32.01,66,75,9.26,JP,1690268922
63,port lincoln,-34.7333,135.8667,14.05,71,0,3.88,AU,1690268923
64,flying fish cove,-10.4217,105.6791,25.82,78,75,5.14,CX,1690268923
65,dalandzadgad,43.5708,104.425,31.91,15,76,7.26,MN,1690268894
66,bethel,41.3712,-73.414,23.28,80,0,0.0,US,1690268924
67,booue,-0.0921,11.9385,24.56,78,18,1.42,GA,1690268924
68,la maddalena,41.2142,9.4083,31.03,79,59,10.64,IT,1690268925
69,tazovsky,67.4667,78.7,20.27,65,100,4.28,RU,1690268807
70,lata,40.1629,-8.3327,14.49,88,28,1.17,PT,1690268926
71,chonchi,-42.6128,-73.8092,7.84,94,100,3.58,CL,1690268926
72,lebu,-37.6167,-73.65,11.23,86,100,5.75,CL,1690268927
73,trairi,-3.2778,-39.2689,23.39,86,31,4.0,BR,1690268733
74,port elizabeth,-33.918,25.5701,8.16,87,0,1.03,ZA,1690268928
75,lihue,21.9789,-159.3672,27.58,86,100,6.17,US,1690268928
76,sao joao da barra,-21.6403,-41.0511,20.3,90,4,3.13,BR,1690268824
77,cururupu,-1.8283,-44.8683,22.89,95,2,0.82,BR,1690268929
78,udachny,66.4167,112.4,21.81,48,99,2.08,RU,1690268929
79,lichinga,-13.3128,35.2406,18.05,63,20,5.14,MZ,1690268929
80,kisangani,0.5167,25.2,25.15,81,100,1.09,CD,1690268930
81,karratha,-20.7377,116.8463,22.55,50,0,8.73,AU,1690268930
82,enewetak,11.3474,162.3373,28.76,80,42,6.4,MH,1690268931
83,acheng,45.5454,126.977,27.88,66,14,2.99,CN,1690268931
84,olyokminsk,60.3736,120.4264,29.9,34,94,1.8,RU,1690268932
85,jerseyville,39.12,-90.3285,24.93,85,0,1.22,US,1690268932
86,west island,-12.1568,96.8225,26.99,69,40,8.75,CC,1690268933
87,dunedin,-45.8742,170.5036,8.22,64,31,6.26,NZ,1690268933
88,tadine,-21.55,167.8833,20.19,68,95,6.09,NC,1690268933
89,mukalla,14.5425,49.1242,33.46,58,100,2.0,YE,1690268934
90,weno,7.4515,151.8468,28.97,84,100,1.54,FM,1690268934
91,souillac,-20.5167,57.5167,24.09,73,58,4.36,MU,1690268935
92,talnakh,69.4865,88.3972,22.34,44,96,2.55,RU,1690268935
93,apiai,-24.5094,-48.8425,12.83,78,4,0.95,BR,1690268935
94,rio grande,-32.035,-52.0986,13.3,96,100,8.62,BR,1690268936
95,college,64.8569,-147.8028,23.99,62,75,0.0,US,1690268936
96,ushuaia,-54.8,-68.3,-5.89,95,42,2.25,AR,1690268937
97,beitbridge,-22.2167,30.0,17.71,76,100,8.75,ZW,1690268937
98,banda aceh,5.5577,95.3222,31.7,59,92,8.03,ID,1690268938
99,alice springs,-23.7,133.8833,18.75,30,0,7.2,AU,1690268938
100,harper,4.375,-7.7169,24.88,86,100,4.07,LR,1690268938
101,thompson,55.7435,-97.8558,13.62,87,8,2.02,CA,1690268939
102,tayoltita,24.0833,-105.9333,21.13,82,100,1.56,MX,1690268939
103,tionk essil,12.7856,-16.5217,25.62,88,100,2.53,SN,1690268940
104,utrik,11.2278,169.8474,28.57,73,100,7.07,MH,1690268940
105,homer,59.6425,-151.5483,13.21,79,0,3.58,US,1690268911
106,chui,-33.6971,-53.4616,10.84,92,100,5.71,UY,1690268941
107,lundazi,-12.2929,33.1782,22.37,43,32,4.6,ZM,1690268941
108,muang phon-hong,18.4928,102.4172,33.61,52,100,1.92,LA,1690268942
109,borogontsy,62.6683,131.1683,30.24,39,25,4.4,RU,1690268942
110,kulu,39.0951,33.0799,22.46,41,0,4.46,TR,1690268943
111,port mathurin,-19.6833,63.4167,23.54,75,11,8.33,MU,1690268943
112,sinop,41.7711,34.8709,22.24,46,0,1.75,TR,1690268944
113,lompoc,34.6391,-120.4579,23.21,94,0,0.0,US,1690268944
114,nizhneudinsk,54.9076,99.0276,24.15,49,27,1.56,RU,1690268945
115,ujae,8.9322,165.7642,28.75,75,100,7.28,MH,1690268945
116,alofi,-19.0595,-169.9187,22.84,60,9,4.49,NU,1690268945
117,turpan,42.9333,89.1667,42.71,10,86,2.32,CN,1690268946
118,port blair,11.6667,92.75,28.93,78,82,7.83,IN,1690268946
119,milford haven,51.7128,-5.0341,15.9,94,11,5.11,GB,1690268947
120,jining,35.405,116.5814,36.19,41,8,3.34,CN,1690268947
121,kununurra,-15.7667,128.7333,23.99,19,0,5.14,AU,1690268840
122,wailua homesteads,22.0669,-159.378,27.24,89,100,6.17,US,1690268948
123,calugareni,44.1717,25.9956,31.81,27,100,1.92,RO,1690268949
124,progreso,21.2833,-89.6667,27.28,86,80,3.66,MX,1690268949
125,ryotsu-minato,38.0833,138.4333,29.4,69,0,2.15,JP,1690268950
126,iquitos,-3.7481,-73.2472,22.02,100,100,1.03,PE,1690268696
127,nouadhibou,20.931,-17.0347,20.95,86,90,6.15,MR,1690268951
128,longyearbyen,78.2186,15.6401,10.91,71,40,2.57,SJ,1690268951
129,dzhangala,49.2167,50.3333,26.37,43,100,5.35,KZ,1690268951
130,ketchikan,55.3422,-131.6461,15.26,88,100,2.57,US,1690268783
131,bedele,8.456,36.353,18.35,84,73,0.42,ET,1690268952
132,kone,-21.0595,164.8658,19.47,73,100,4.33,NC,1690268953
133,iqaluit,63.7506,-68.5145,3.2,87,100,2.04,CA,1690268953
134,deqen,29.9618,90.7188,15.27,69,92,3.15,CN,1690268954
135,tsumeb,-19.2333,17.7167,17.8,21,99,4.57,NA,1690268955
136,quellon,-43.1167,-73.6167,8.14,100,100,5.14,CL,1690268956
137,ertil',51.8406,40.8056,20.65,68,100,4.06,RU,1690268956
138,praia da vitoria,38.7333,-27.0667,21.53,86,36,3.97,PT,1690268957
139,cadale,2.7603,46.3222,26.6,74,90,10.52,SO,1690268957
140,pucheng,27.9233,118.5333,34.21,43,100,1.46,CN,1690268958
141,leongatha,-38.4833,145.95,10.56,80,18,0.96,AU,1690268958
142,motygino,58.1831,94.7592,25.69,58,88,1.71,RU,1690268958
143,gutao,37.2025,112.1781,32.21,33,93,2.02,CN,1690268959
144,albany,42.6001,-73.9662,19.12,92,0,1.21,US,1690268834
145,uturoa,-16.7333,-151.4333,26.75,84,10,6.4,PF,1690268960
146,colonia,50.9333,6.95,16.27,80,0,2.57,DE,1690268742
147,lobujya,27.95,86.8167,5.64,94,100,2.43,NP,1690268961
148,usogorsk,63.4106,48.6872,15.57,85,100,2.43,RU,1690268961
149,kerikeri,-35.2268,173.9474,11.62,87,99,0.45,NZ,1690268786
150,sandpoint,48.2766,-116.5533,22.08,55,0,2.57,US,1690268830
151,paraiso,9.8383,-83.8656,20.48,90,100,1.8,CR,1690268962
152,garachico,28.7781,-17.7646,21.06,64,75,5.14,ES,1690268963
153,belmonte,-15.8631,-38.8828,20.8,92,97,3.93,BR,1690268963
154,singaraja,-8.112,115.0882,27.1,76,82,0.71,ID,1690268963
155,khandyga,62.6667,135.6,28.98,43,88,2.91,RU,1690268964
156,atafu village,-8.5421,-172.5159,29.16,73,4,9.14,TK,1690268964
157,kovel,51.2153,24.7087,22.59,75,100,4.3,UA,1690268965
158,sequim,48.0795,-123.1018,15.82,96,55,0.89,US,1690268965
159,mungwi,-10.1732,31.3694,20.04,45,55,3.72,ZM,1690268966
160,hadibu,12.65,54.0333,26.74,69,33,13.67,YE,1690268966
161,tazacorte,28.629,-17.9293,22.54,85,75,5.14,ES,1690268966
162,aasiaat,68.7098,-52.8699,2.92,93,100,3.69,GL,1690268967
163,tukrah,32.5341,20.5791,32.27,44,0,3.85,LY,1690268967
164,kalmunai,7.4167,81.8167,33.06,49,100,2.65,LK,1690268968
165,hun,29.1268,15.9477,33.83,19,0,1.66,LY,1690268682
166,blackmans bay,-43.0167,147.3167,11.4,70,72,2.11,AU,1690268968
167,nazarovo,56.0064,90.3914,18.57,86,100,3.18,RU,1690268969
168,saldanha,-33.0117,17.9442,9.61,70,0,4.2,ZA,1690268969
169,floro,61.5996,5.0328,14.04,82,75,6.69,NO,1690268970
170,belel,7.05,14.4333,18.53,88,75,0.96,CM,1690268970
171,ribeira grande,38.5167,-28.7,21.22,88,75,2.68,PT,1690268970
172,mehendiganj,22.8167,90.5333,32.18,64,20,7.32,BD,1690268971
173,stony plain,53.5334,-114.0021,18.23,87,100,7.2,CA,1690268971
174,santa terezinha,-29.9002,-50.0904,17.11,98,100,1.82,BR,1690268972
175,yssingeaux,45.1333,4.1167,14.7,71,88,3.61,FR,1690268972
176,christchurch,-43.5333,172.6333,8.84,93,100,2.24,NZ,1690268925
177,hermanus,-34.4187,19.2345,10.41,61,0,2.57,ZA,1690268973
178,qingyuan,23.7,113.0333,36.99,47,75,1.65,CN,1690268974
179,la foa,-21.7108,165.8276,19.4,75,94,4.79,NC,1690268974
180,grand falls-windsor,48.9332,-55.6649,18.06,90,68,2.75,CA,1690268974
181,tindouf,27.6711,-8.1474,29.07,27,0,4.12,DZ,1690268975
182,tamanrasset,22.785,5.5228,28.95,12,0,3.09,DZ,1690268975
183,seminole,28.7086,-81.2081,25.71,89,0,3.6,US,1690268976
184,labrador city,52.9463,-66.9114,13.86,80,46,1.79,CA,1690268976
185,bredasdorp,-34.5322,20.0403,8.4,67,0,1.53,ZA,1690268976
186,vadso,70.0744,29.7487,10.09,93,75,7.72,NO,1690268977
187,clarence town,-32.5833,151.7833,17.14,88,71,1.7,AU,1690268978
188,north bend,43.4065,-124.2243,17.7,100,100,2.06,US,1690268707
189,cravinhos,-21.3403,-47.7294,13.4,58,3,1.85,BR,1690268879
190,ust-nera,64.5667,143.2,20.39,66,48,3.02,RU,1690268979
191,punta arenas,-53.15,-70.9167,-2.09,89,54,1.98,CL,1690268980
192,balkanabat,39.5108,54.3671,35.09,35,5,5.28,TM,1690268958
193,bodaybo,57.8506,114.1933,29.54,38,6,2.47,RU,1690268981
194,beloyarskiy,63.7119,66.6722,25.56,50,100,1.25,RU,1690268981
195,bodo,67.28,14.405,18.03,84,0,2.57,NO,1690268981
196,kutum,14.2,24.6667,28.39,42,52,8.33,SD,1690268982
197,kolonia town,6.964,158.206,28.0,89,100,0.0,FM,1690268982
198,gaiman,-43.2897,-65.4929,7.58,54,99,12.97,AR,1690268983
199,birobidzhan,48.8,132.95,26.41,73,23,3.26,RU,1690268983
200,usinsk,65.9939,57.5281,22.75,47,8,1.56,RU,1690268984
201,salinopolis,-0.6136,-47.3561,25.61,83,5,2.37,BR,1690268804
202,veinticinco de mayo,-35.4323,-60.1727,2.21,95,7,0.89,AR,1690268985
203,puerto deseado,-47.7503,-65.8938,6.05,80,100,9.41,AR,1690268985
204,linxia chengguanzhen,35.6003,103.2064,29.71,32,22,3.4,CN,1690268986
205,kulhudhuffushi,6.6221,73.07,28.11,78,85,5.81,MV,1690268986
206,boguchar,49.9358,40.545,24.29,47,5,2.06,RU,1690268986
207,traiguen,-38.25,-72.6833,8.67,98,100,3.6,CL,1690268987
208,hasaki,35.7333,140.8333,32.95,78,100,5.86,JP,1690268987
209,sitka,57.0531,-135.33,14.94,77,0,3.09,US,1690268988
210,islaz,43.7333,24.75,34.19,24,6,2.17,RO,1690268988
211,jand,33.4299,72.0193,35.58,46,100,2.18,PK,1690268988
212,peace river,56.2501,-117.286,15.7,98,100,3.63,CA,1690268989
213,marsabit,2.3284,37.9899,20.0,57,44,8.95,KE,1690268989
214,goundam,16.4145,-3.6708,30.55,56,76,5.56,ML,1690268990
215,casino,-28.8667,153.05,16.43,66,18,2.56,AU,1690268990
216,oranjemund,-28.55,16.4333,14.84,44,1,3.09,NA,1690268990
217,porto novo,6.4965,2.6036,24.48,89,99,1.76,BJ,1690268991
218,miramar,25.9873,-80.2323,30.01,78,0,1.54,US,1690268991
219,murphysboro,37.7645,-89.3351,24.35,94,0,0.0,US,1690268992
220,pedernales,18.0384,-71.744,27.48,72,100,1.24,DO,1690268992
221,puerto aysen,-45.4,-72.7,-0.44,99,95,0.64,CL,1690268992
222,vilyuchinsk,52.9306,158.4028,22.92,67,0,3.1,RU,1690268993
223,capri,40.5507,14.2426,33.42,46,53,7.82,IT,1690268993
224,kapuskasing,49.4169,-82.4331,13.29,69,82,1.98,CA,1690268993
225,saint-philippe,-21.3585,55.7679,24.77,79,39,4.39,RE,1690268994
226,zhosaly,45.4878,64.0781,39.11,15,14,5.57,KZ,1690268994
227,antofagasta,-23.65,-70.4,15.6,87,66,1.36,CL,1690268995
228,coahuayana de hidalgo,18.7,-103.6583,25.15,93,99,1.69,MX,1690268995
229,kilju,40.9642,129.3278,29.37,61,0,2.6,KP,1690268996
230,crane,31.3974,-102.3501,28.48,31,0,4.41,US,1690268996
231,mili,6.0815,171.735,28.48,77,63,4.51,MH,1690268997
232,lingyuan,41.24,119.4011,33.55,35,0,4.11,CN,1690268997
233,hami,42.8,93.45,37.34,10,0,4.31,CN,1690268997
234,haiku-pauwela,20.9219,-156.3051,24.03,79,0,9.26,US,1690268999
235,sakakah,29.9697,40.2064,36.57,13,0,3.77,SA,1690268999
236,mount isa,-20.7333,139.5,22.87,38,40,8.23,AU,1690268999
237,yuzhno-kurilsk,44.0306,145.8556,21.87,86,35,0.73,RU,1690269000
238,kingston,17.997,-76.7936,26.25,84,70,1.36,JM,1690268968
239,caldaro sulla strada del vino,46.4133,11.2462,21.16,86,40,0.89,IT,1690269001
240,al qitena,14.8648,32.3668,32.34,38,95,1.08,SD,1690269001
241,susuman,62.7833,148.1667,21.0,52,100,1.34,RU,1690269002
242,carutapera,-1.195,-46.02,23.74,91,3,1.17,BR,1690269002
243,egilsstadir,65.2653,-14.3948,6.69,91,100,2.45,IS,1690269003
244,jianshui,23.6363,102.8264,29.96,48,100,3.45,CN,1690269004
245,dryden,49.7833,-92.7503,14.16,73,86,1.8,CA,1690269004
246,fale old settlement,-9.3852,-171.2468,28.96,73,4,8.96,TK,1690269006
247,novo aripuana,-5.1206,-60.3797,21.8,62,49,0.76,BR,1690269007
248,mar de espanha,-21.8672,-43.0097,19.38,78,97,1.22,BR,1690269008
249,chinde,26.8418,88.0763,23.85,74,89,2.02,NP,1690269008
250,piton saint-leu,-21.2196,55.3151,24.67,57,0,1.54,RE,1690269008
251,taoudenni,22.6783,-3.9836,37.74,17,4,2.71,ML,1690269010
252,lepsy,46.235,78.9456,37.2,12,6,5.0,KZ,1690269011
253,mizan teferi,6.9833,35.5833,20.27,77,97,0.31,ET,1690269011
254,vilyuysk,63.7553,121.6247,24.74,39,51,3.1,RU,1690269012
255,zhezqazghan,47.7833,67.7667,32.32,17,0,4.0,KZ,1690269012
256,tafuna,-14.3358,-170.72,25.97,83,40,4.12,AS,1690269013
257,acapulco de juarez,16.8634,-99.8901,27.9,83,75,1.54,MX,1690268915
258,stanley,54.868,-1.6985,13.74,84,0,4.12,GB,1690269014
259,olonkinbyen,70.9221,-8.7187,5.3,90,100,4.44,SJ,1690269014
260,taksimo,56.3444,114.8794,29.09,34,14,2.32,RU,1690269014
261,yanykurgan,43.915,67.2481,40.49,12,0,8.03,KZ,1690269015
262,qaqortoq,60.7167,-46.0333,5.91,91,100,1.59,GL,1690269015
263,vernon,50.2581,-119.2691,16.45,75,100,1.79,CA,1690269016
264,victorica,-36.2151,-65.4359,5.69,80,100,8.35,AR,1690269016
265,bolobo,-2.1667,16.2333,25.38,63,11,1.95,CD,1690269016
266,trinity beach,-16.7888,145.6968,23.34,60,75,6.17,AU,1690269017
267,tura,25.5198,90.2201,31.98,65,90,1.29,IN,1690269017
268,troitskoye,52.9821,84.6757,28.96,33,100,5.83,RU,1690269018
269,aitape,-3.1374,142.3475,27.13,85,78,4.54,PG,1690269018
270,shangzhi,45.2167,127.9667,26.82,76,100,3.47,CN,1690269019
271,gelinkaya,37.417,41.293,34.94,25,0,2.58,TR,1690269019
272,mugia,43.1041,-9.2179,13.84,68,84,3.6,ES,1690269019
273,bandar abbas,27.1865,56.2808,35.99,59,75,4.12,IR,1690269020
274,mount gambier,-37.8333,140.7667,12.69,73,67,1.64,AU,1690269021
275,jayapura,-2.5333,140.7,29.66,83,87,3.27,ID,1690269022
276,ascension,30.2169,-90.9001,26.16,96,0,0.0,US,1690269022
277,bel ombre,-4.6167,55.4167,25.35,82,46,6.94,SC,1690269023
278,sergeyevka,53.88,67.4158,27.17,33,6,4.41,KZ,1690269023
279,lorengau,-2.0226,147.2712,25.68,89,100,4.72,PG,1690269024
280,salalah,17.0151,54.0924,27.05,89,100,3.6,OM,1690269024
281,east london,-33.0153,27.9116,12.52,66,0,2.06,ZA,1690269024
282,carnarvon,-24.8667,113.6333,22.04,60,100,11.39,AU,1690269025
283,newman,37.3138,-121.0208,24.05,65,0,1.34,US,1690269025
284,togur,58.3631,82.8265,25.18,50,96,1.9,RU,1690269026
285,purranque,-40.9167,-73.1667,6.82,96,61,2.58,CL,1690269026
286,callao,-12.0667,-77.15,21.16,68,75,4.63,PE,1690269027
287,nanao,37.05,136.9667,34.54,65,0,3.51,JP,1690269027
288,westport,41.1415,-73.3579,24.48,88,20,3.6,US,1690268819
289,watford city,47.8022,-103.2832,28.03,47,0,7.72,US,1690268969
290,conde,-7.2597,-34.9075,21.7,94,40,2.06,BR,1690269028
291,qaisumah,28.3112,46.1273,42.2,6,13,3.09,SA,1690269029
292,acarau,-2.8856,-40.12,24.77,81,27,6.85,BR,1690268927
293,dongsheng,39.8161,109.9776,31.43,23,100,5.31,CN,1690268783
294,kalengwa,-13.4659,25.0027,20.94,36,0,3.51,ZM,1690269030
295,isangel,-19.55,169.2667,20.91,71,100,6.97,VU,1690268867
296,urengoy,65.9667,78.3667,27.6,43,65,4.16,RU,1690269031
297,zouerate,22.7187,-12.4521,25.22,41,4,4.67,MR,1690269031
298,camargo,27.6667,-105.1667,26.2,39,0,5.57,MX,1690268879
299,al ghayzah,16.2079,52.176,27.12,77,100,5.6,YE,1690269032
300,stocksbridge,53.4825,-1.5937,12.26,85,56,4.13,GB,1690269032
301,pimenta bueno,-11.6725,-61.1936,19.54,59,0,0.85,BR,1690269033
302,buta,2.7858,24.73,22.75,97,100,1.45,CD,1690269033
303,selkirk,50.1436,-96.8845,20.06,82,7,3.55,CA,1690269034
304,kurchatov,51.6601,35.6521,24.11,60,90,5.32,RU,1690269034
305,terrace,54.5163,-128.6035,13.45,96,100,0.86,CA,1690269034
306,ad douiem,14.0012,32.3116,32.73,44,88,4.5,SD,1690269035
307,nishinoomote,30.7333,131.0,28.75,80,100,4.77,JP,1690269035
308,union hidalgo,16.4723,-94.8295,25.07,88,84,5.8,MX,1690269036
309,quesnel,52.9999,-122.5029,14.28,94,100,1.03,CA,1690269036
310,sagua la grande,22.8067,-80.0756,26.55,84,0,3.47,CU,1690269037
311,codrington,-38.2667,141.9667,12.12,76,78,2.84,AU,1690269037
312,chania,35.5122,24.0156,31.78,45,0,1.54,GR,1690269038
313,selfoss,63.9331,-20.9971,11.14,91,100,1.38,IS,1690269038
314,santa ana,33.7456,-117.8678,25.59,86,100,3.09,US,1690269039
315,dudinka,69.4058,86.1778,22.57,44,0,6.63,RU,1690269039
316,iranshahr,27.2025,60.6848,39.02,22,100,1.53,IR,1690269040
317,forio,40.7342,13.8646,33.76,76,41,7.87,IT,1690269040
318,saipan,15.1355,145.701,29.39,100,20,5.14,MP,1690269041
319,hounde,11.5,-3.5167,22.79,89,100,1.51,BF,1690269042
320,brookings,44.3114,-96.7984,20.19,90,0,4.12,US,1690269042
321,kolokani,13.5728,-8.0339,26.26,65,69,0.87,ML,1690269042
322,manokwari,-0.8667,134.0833,28.45,73,100,1.52,ID,1690269043
323,tobol'sk,58.2,68.2667,23.0,54,99,5.22,RU,1690269044
324,ciudad lazaro cardenas,17.9583,-102.2,25.27,90,99,2.15,MX,1690269044
325,port angeles,48.1181,-123.4307,15.94,78,75,2.06,US,1690269007
326,ivdel',60.6911,60.4206,24.91,39,15,1.73,RU,1690269045
327,sile,41.1754,29.6133,28.37,58,0,1.79,TR,1690269046
328,dzuunmod,48.2199,97.3744,18.91,33,100,6.47,MN,1690269046
329,northam,51.0333,-4.2167,15.22,92,17,2.51,GB,1690269047
330,clanton,32.8387,-86.6294,22.91,91,0,1.62,US,1690269047
331,hammerfest,70.6634,23.6821,15.25,72,20,2.57,NO,1690269048
332,kenai,60.5544,-151.2583,13.05,89,0,7.2,US,1690268881
333,shimanovsk,52.0,127.7,21.4,77,100,3.02,RU,1690269048
334,ruyigi,-3.45,30.3167,21.29,43,90,2.26,BI,1690269049
335,koungou,-12.7336,45.2042,27.84,65,0,5.14,YT,1690269049
336,dauphin,51.1494,-100.0502,18.08,88,0,2.57,CA,1690269050
337,djebeniana,35.035,10.9081,33.94,42,0,6.1,TN,1690269050
338,pahrump,36.2083,-115.9839,33.03,23,75,0.45,US,1690268812
339,hancheng,32.5186,112.3522,31.2,60,7,5.38,CN,1690269051
340,klaksvik,62.2266,-6.589,8.51,81,100,5.81,FO,1690269051
341,nazare,-13.035,-39.0144,17.89,99,28,1.41,BR,1690269051
342,bandon,51.7469,-8.7425,12.77,84,7,0.96,IE,1690269052
343,siwa oasis,29.2041,25.5195,33.83,26,0,8.36,EG,1690269052
344,noumea,-22.2763,166.4572,20.56,99,96,6.68,NC,1690269053
345,cabo san lucas,22.8909,-109.9124,29.78,82,100,2.24,MX,1690268992
346,sisimiut,66.9395,-53.6735,4.34,91,65,6.45,GL,1690269053
347,freeport,40.6576,-73.5832,24.99,82,0,4.12,US,1690269054
348,pytalovo,57.0679,27.9138,16.82,81,100,3.73,RU,1690269054
349,prainha,-1.8,-53.48,22.14,71,8,1.17,BR,1690268823
350,merizo village,13.2658,144.6691,29.21,95,100,5.41,GU,1690269055
351,peniche,39.3558,-9.3811,19.2,79,0,8.5,PT,1690269055
352,safotu,-13.4513,-172.4018,27.15,77,6,9.37,WS,1690269056
353,san patricio,28.017,-97.5169,28.92,79,8,3.34,US,1690269056
354,tolanaro,-25.0319,46.9987,23.16,47,0,4.55,MG,1690269057
355,kodiak,57.79,-152.4072,11.73,82,0,2.06,US,1690269057
356,playas,-2.6333,-80.3833,23.71,83,52,3.62,EC,1690269057
357,barcelos,41.5388,-8.6151,17.18,80,1,1.87,PT,1690268935
358,arraial do cabo,-22.9661,-42.0278,20.64,91,3,8.54,BR,1690268968
359,tsetserleg,47.475,101.4542,18.68,65,100,2.61,MN,1690269058
360,antsiranana,-12.2787,49.2917,27.18,51,84,6.37,MG,1690268841
361,zhangye,38.9342,100.4517,34.64,10,94,5.69,CN,1690269059
362,queenstown,-31.8976,26.8753,8.67,30,63,1.8,ZA,1690269060
363,lagkadas,40.75,23.0667,33.49,57,0,1.44,GR,1690269060
364,qui nhon,13.7667,109.2333,27.79,78,98,0.49,VN,1690269060
365,sumbawanga,-7.9667,31.6167,19.84,38,4,2.51,TZ,1690269061
366,bereznik,62.8551,42.7072,19.84,58,18,1.49,RU,1690269061
367,severo-yeniseyskiy,60.3725,93.0408,27.55,38,51,2.5,RU,1690269061
368,neryungri,56.6709,124.6491,25.71,47,81,1.29,RU,1690269062
369,bikenibeu village,1.3673,173.1241,27.98,83,40,5.66,KI,1690269062
370,upata,8.0086,-62.3989,24.0,97,90,1.16,VE,1690269063
371,fortuna,40.5982,-124.1573,15.37,94,0,0.0,US,1690269063
372,fort bragg,35.139,-79.006,24.0,95,0,0.0,US,1690269063
373,guerrero negro,27.9769,-114.0611,20.18,81,12,4.91,MX,1690269064
374,tamuin,21.9833,-98.75,24.72,81,100,1.66,MX,1690269064
375,beterou,9.1992,2.2586,22.74,95,97,1.36,BJ,1690269065
376,keflavik,64.0049,-22.5624,10.95,93,75,0.51,IS,1690269065
377,joshimath,30.5667,79.5667,25.98,83,91,3.14,IN,1690269065
378,anapa,44.8908,37.3239,26.19,54,20,4.0,RU,1690268774
379,lospalos,-8.5186,127.0025,22.16,61,31,5.37,TL,1690269066
380,mahilyow,53.9139,30.3364,18.45,89,100,4.81,BY,1690268946
381,badiyah,22.45,58.8,29.48,61,100,3.98,OM,1690269068
382,labytnangi,66.6572,66.4183,23.53,62,100,4.47,RU,1690269068
383,llorente,11.4119,125.5458,30.17,69,92,7.59,PH,1690269069
384,sinabang,2.4803,96.3801,29.89,67,18,1.66,ID,1690269070
385,itanhem,-17.1664,-40.33,19.27,91,100,0.92,BR,1690269070
386,prado,-17.3411,-39.2208,19.66,96,74,2.31,BR,1690269070
387,mount pearl,47.5166,-52.7813,19.14,92,100,1.34,CA,1690269071
388,sur,22.5667,59.5289,29.26,70,100,2.63,OM,1690269071
389,woolgoolga,-30.1106,153.2007,16.69,63,22,5.28,AU,1690269072
390,puerto armuelles,8.2833,-82.8667,27.83,70,100,1.34,PA,1690269072
391,berezovyy,51.6667,135.7,18.5,96,100,1.0,RU,1690269072
392,soto la marina,23.7667,-98.2167,24.2,89,100,1.63,MX,1690269073
393,quepos,9.4236,-84.1652,25.75,81,99,2.17,CR,1690269073
394,inongo,-1.95,18.2667,22.32,78,20,2.39,CD,1690269074
395,desna,50.9273,30.7605,26.03,48,100,4.07,UA,1690269074
396,lagos de moreno,21.35,-101.9167,14.47,87,100,2.74,MX,1690269075
397,nagqu,31.5,92.0,12.83,62,96,3.84,CN,1690269075
398,zintan,31.9223,12.252,33.72,14,0,5.73,LY,1690269075
399,bougouni,11.417,-7.479,23.51,91,100,1.14,ML,1690269076
400,new norfolk,-42.7826,147.0587,12.06,74,99,1.56,AU,1690269076
401,pisco,-13.7,-76.2167,16.12,80,5,0.66,PE,1690269076
402,cutral-co,-38.9469,-69.2089,3.84,10,60,0.89,AR,1690269077
403,hobyo,5.3505,48.5268,27.4,65,99,11.53,SO,1690269077
404,magadan,59.5667,150.8,23.63,69,9,2.82,RU,1690269078
405,sinjai,-5.1241,120.253,27.78,70,52,2.91,ID,1690269078
406,ad darb,17.7229,42.2526,41.11,19,23,3.44,SA,1690269079
407,taltal,-25.4,-70.4833,14.39,86,100,1.0,CL,1690269020
408,puerto san jose,13.9256,-90.8244,25.15,90,98,3.36,GT,1690269079
409,gaoual,11.75,-13.2,23.05,97,60,1.04,GN,1690269080
410,sumter,28.7086,-82.0831,24.41,87,92,1.53,US,1690269080
411,nyagan,62.1406,65.3936,22.86,55,86,1.73,RU,1690269081
412,ghadamis,30.1337,9.5007,35.55,14,0,6.65,LY,1690269081
413,sitangkai,4.6628,119.3928,28.41,79,98,8.45,PH,1690269081
414,karasu,41.071,30.7854,25.51,51,0,1.42,TR,1690269082
415,tralee,52.2704,-9.7026,12.34,88,7,1.13,IE,1690269082
416,vila velha,-20.3297,-40.2925,19.41,94,75,1.54,BR,1690269083
417,stanthorpe,-28.6667,151.95,11.35,70,51,4.25,AU,1690269083
418,presque isle,46.6811,-68.0159,19.24,86,0,1.54,US,1690268911
419,ban huai thalaeng,14.9833,102.65,30.2,65,92,4.62,TH,1690269084
420,shaowu,27.3409,117.4831,32.13,63,100,2.03,CN,1690268835
421,chibougamau,49.9168,-74.3659,15.79,94,100,1.34,CA,1690268981
422,mejit,10.2753,170.8646,28.38,76,100,8.04,MH,1690269085
423,faya-largeau,17.9257,19.1043,36.37,12,22,3.69,TD,1690269085
424,falmouth,50.1544,-5.0711,15.56,100,40,1.03,GB,1690269086
425,ebon,4.582,168.6964,28.74,74,16,3.94,MH,1690269086
426,huarmey,-10.0681,-78.1522,19.95,84,56,3.54,PE,1690269086
427,malabar,-33.9667,151.25,16.84,72,20,4.12,AU,1690269087
428,klyuchi,52.2667,79.1667,28.35,32,100,6.32,RU,1690269087
429,rio gallegos,-51.6226,-69.2181,-1.71,93,100,1.76,AR,1690269088
430,saint john,45.2727,-66.0677,14.91,98,20,2.13,CA,1690268934
431,ndola,-12.9587,28.6366,20.73,44,4,4.28,ZM,1690269089
432,port saint john's,-31.6229,29.5448,14.9,58,5,2.25,ZA,1690269089
433,sabang,5.8933,95.3214,28.61,76,85,10.53,ID,1690269090
434,worland,44.0169,-107.9554,27.04,72,0,1.54,US,1690269090
435,greymouth,-42.4667,171.2,9.15,81,100,7.87,NZ,1690269091
436,howard springs,-12.497,131.047,25.46,17,100,3.77,AU,1690269092
437,ola,59.5833,151.2833,23.97,69,9,3.03,RU,1690269092
438,bunia,1.5667,30.25,22.12,74,83,1.08,CD,1690269093
439,st. john's,47.5649,-52.7093,19.6,93,100,0.45,CA,1690269000
440,tshabong,-26.05,22.45,15.05,18,77,5.01,BW,1690269093
441,piti village,13.4626,144.6933,29.38,94,100,5.14,GU,1690269094
442,lyubinskiy,55.1542,72.6925,25.82,33,8,7.09,RU,1690269094
443,ardakan,32.31,54.0175,37.22,7,62,2.12,IR,1690269095
444,marshall,34.3834,-86.3333,22.41,93,0,0.0,US,1690269095
445,warangal,18.0,79.5833,27.22,81,94,9.19,IN,1690268973
446,afaahiti,-17.75,-149.2833,25.93,84,5,7.84,PF,1690269096
447,crixas,-14.5489,-49.9692,22.82,55,29,2.85,BR,1690269096
448,adrar,20.5022,-10.0711,32.68,20,55,3.48,MR,1690269097
449,kot addu,30.4692,70.9671,32.99,57,100,4.34,PK,1690269097
450,keren,15.7778,38.4581,24.69,57,45,2.39,ER,1690269098
451,galliano,29.4422,-90.2992,25.0,88,0,0.0,US,1690269098
452,ta`u,-14.2336,-169.5144,25.91,71,19,5.99,AS,1690269099
453,luwuk,-0.9516,122.7875,27.98,73,100,3.41,ID,1690269099
454,lagoa,39.05,-27.9833,21.89,69,100,5.15,PT,1690269100
455,revda,56.801,59.9303,21.12,53,11,4.02,RU,1690269100
456,evanston,42.0411,-87.6901,22.2,78,0,0.0,US,1690269100
457,envira,-7.3,-70.2167,22.0,69,23,0.68,BR,1690269078
458,malatya,38.5,38.0,26.03,32,0,2.41,TR,1690269101
459,chegdomyn,51.1167,133.0167,20.64,96,100,1.46,RU,1690269102
460,grantsville,40.5999,-112.4644,24.91,40,25,2.27,US,1690269102
461,al jawf,29.5,38.75,33.87,16,0,4.19,SA,1690269103
462,alaghsas,17.0187,8.0168,29.94,62,6,4.63,NE,1690269103
463,bucerias,20.75,-105.3333,24.43,100,100,0.0,MX,1690269103
464,freetown,8.484,-13.2299,24.84,89,75,3.09,SL,1690269104
465,kyren,51.6828,102.1408,24.76,47,31,1.94,RU,1690269104
466,la passe,45.5549,-0.8967,18.13,64,100,8.09,FR,1690269105
467,daru,-9.0763,143.2092,25.15,71,78,4.76,PG,1690269105
468,bandraboua,-12.7044,45.1223,27.82,69,99,4.44,YT,1690269105
469,san fernando de apure,7.8878,-67.4724,22.96,96,55,0.15,VE,1690269106
470,tyul'gan,52.3405,56.166,24.58,47,93,0.59,RU,1690269106
471,kailua-kona,19.6406,-155.9956,29.22,89,0,2.57,US,1690269106
472,aswan,24.0934,32.907,38.57,14,5,1.1,EG,1690269107
473,le pouliguen,47.2697,-2.4278,16.73,80,9,8.56,FR,1690269108
474,mazara del vallo,37.6641,12.588,34.97,55,0,7.19,IT,1690269108
475,puerto montt,-41.4698,-72.9447,8.46,100,75,6.17,CL,1690269039
476,inari,68.906,27.0288,10.11,96,100,3.96,FI,1690269109
477,chipinge,-20.1883,32.6236,14.39,76,79,2.29,ZW,1690269109
478,tanout,14.9709,8.8879,28.79,52,83,6.69,NE,1690269109
479,tebingtinggi,3.3285,99.1625,33.51,49,66,2.25,ID,1690269110
480,laojunmiao,39.8333,97.7333,28.35,15,2,4.4,CN,1690269110
481,kruisfontein,-34.0033,24.7314,10.12,51,0,1.85,ZA,1690269111
482,eleskirt,39.8033,42.6736,22.92,54,23,4.08,TR,1690268958
483,roma,43.2128,-75.4557,18.18,98,0,0.0,US,1690269111
484,brisas de zicatela,15.8369,-97.0419,25.9,85,98,2.4,MX,1690269112
485,torre del greco,40.7839,14.3708,34.2,44,0,1.54,IT,1690269112
486,tofol,5.3248,163.0078,28.82,76,100,5.87,FM,1690269113
487,myanaung,18.2833,95.3167,33.27,51,55,6.7,MM,1690269113
488,kavaratti,10.5669,72.642,28.35,77,47,7.5,IN,1690269114
489,adam,22.3756,57.5233,29.16,63,100,2.68,OM,1690269114
490,kuala belait,4.5833,114.1833,31.77,58,90,4.7,BN,1690269115
491,tchintabaraden,15.8969,5.7985,29.63,47,90,4.17,NE,1690269115
492,ciudad bolivar,8.1222,-63.5497,25.22,87,40,1.59,VE,1690269116
493,uitenhage,-33.7576,25.3971,8.77,48,0,1.99,ZA,1690269116
494,delijan,33.9905,50.6838,33.99,11,81,1.11,IR,1690268840
495,istgah-e rah ahan-e garmsar,35.2346,52.3094,37.02,10,2,11.17,IR,1690269117
496,mandalgovi,45.7625,106.2708,27.81,25,0,8.95,MN,1690268894
497,dolores,-36.3132,-57.6792,5.03,88,66,3.42,AR,1690269118
498,bayanhongor,46.7167,100.1167,20.9,29,98,6.63,MN,1690269118
499,colonia general alfredo stroessner,-25.3667,-55.7,16.61,73,50,1.08,PY,1690269118
500,meadow lake,34.8014,-106.5436,27.89,32,85,2.66,US,1690269119
501,palikir - national government center,6.9248,158.1611,27.41,89,100,0.0,FM,1690269119
502,syumsi,57.1111,51.6149,16.63,83,100,1.87,RU,1690269120
503,vuktyl,63.8567,57.3094,23.45,40,49,2.61,RU,1690269120
504,lakatoro,-16.0999,167.4164,23.71,89,100,8.05,VU,1690269120
505,prachuap khiri khan,12.2167,99.75,24.77,84,100,1.12,TH,1690268978
506,diego de almagro,-26.3667,-70.05,11.45,66,97,1.04,CL,1690269121
507,pades,45.0167,22.85,26.28,50,10,1.16,RO,1690269121
508,glendive,47.1053,-104.7125,29.79,34,0,4.63,US,1690269122
509,la ronge,55.1001,-105.2842,19.14,68,0,1.54,CA,1690269122
510,talakan,50.3167,130.3667,20.99,96,100,1.57,RU,1690269123
511,chippewa falls,44.9369,-91.3929,20.55,92,0,1.54,US,1690268857
512,nchelenge,-9.3451,28.734,21.61,44,72,2.58,ZM,1690269123
513,diamond harbour,22.1917,88.1847,33.45,58,93,7.49,IN,1690269124
514,lively,46.4334,-81.1498,16.68,93,3,2.1,CA,1690269124
515,gracemere,-23.4333,150.45,21.95,49,1,7.2,AU,1690269125
516,vicuna,-30.0319,-70.7081,7.85,58,89,0.6,CL,1690269125
517,papao,-17.75,-149.55,26.82,87,5,8.73,PF,1690269126
518,miyazu,35.5333,135.1833,27.76,81,44,1.79,JP,1690269126
519,leava,-14.3,-178.1667,26.39,73,100,7.73,WF,1690269127
520,ubari,26.5921,12.7805,34.62,15,2,5.93,LY,1690269127
521,sindi,20.8,78.8667,32.49,65,95,3.96,IN,1690269127
522,gazli,40.1333,63.45,41.29,8,0,8.47,UZ,1690269128
523,mahina,-17.5065,-149.489,26.87,83,40,4.63,PF,1690269128
524,chimay,50.0486,4.3171,14.91,95,100,3.35,BE,1690269128
525,baiquan,47.5833,126.0833,27.61,58,100,3.75,CN,1690269129
526,forster,-32.1667,152.5167,15.72,82,66,3.77,AU,1690269129
527,novovarshavka,54.1721,74.6946,26.53,37,100,6.25,RU,1690269130
528,ranchettes,41.2186,-104.7903,20.81,52,0,3.6,US,1690269130
529,punta alta,-38.8759,-62.0736,5.04,72,94,5.31,AR,1690269085
530,nadi,-17.8,177.4167,24.0,83,100,1.54,FJ,1690269131
531,terra nova,-12.3667,-40.6667,14.1,97,3,0.56,BR,1690269131
532,kapa'a,22.0752,-159.319,27.99,89,100,6.17,US,1690269132
533,kurumkan,54.3,110.3,25.95,49,100,1.52,RU,1690269132
534,lerwick,60.1545,-1.1494,11.0,72,80,6.55,GB,1690269132
535,belo sur tsiribihina,-19.7,44.55,26.69,29,0,2.73,MG,1690269133
536,nova vicosa,-17.8919,-39.3719,20.8,89,16,0.64,BR,1690269133
537,chilapa de alvarez,17.6,-99.1667,18.04,96,100,0.51,MX,1690269134
538,linda,39.1277,-121.5508,26.19,53,0,3.09,US,1690269134
539,saint-felix-de-valois,46.1668,-73.4324,20.18,93,85,0.81,CA,1690269135
540,taro,-8.3862,115.28,24.0,78,86,2.1,ID,1690269135
541,ocean shores,46.9737,-124.1563,14.97,97,6,0.89,US,1690269015
542,timbiqui,2.7717,-77.6654,24.52,93,100,1.23,CO,1690269136
543,neya,58.2972,43.8681,17.91,71,99,1.71,RU,1690269136
544,wewak,-3.5534,143.6268,26.27,87,100,5.27,PG,1690269136
545,rio preto da eva,-2.6994,-59.6997,22.86,65,39,1.02,BR,1690269137
546,prince rupert,54.3161,-130.3201,12.55,93,100,1.47,CA,1690268904
547,shakawe,-18.3667,21.85,19.57,25,0,2.47,BW,1690269138
548,ojinaga,29.5667,-104.4167,31.9,32,0,4.63,MX,1690269139
549,andergrove,-21.0833,149.1833,20.91,79,84,10.12,AU,1690269139
550,murghob,38.1702,73.9667,17.04,29,100,0.67,TJ,1690269140
551,staporkow,51.1376,20.5717,21.46,65,100,5.46,PL,1690269140
552,plastun,44.7561,136.2939,25.91,73,87,2.67,RU,1690269140
553,senillosa,-39.0,-68.4167,6.77,62,59,3.15,AR,1690269141
554,la libertad,-2.2333,-80.9,23.14,85,87,5.18,EC,1690269141
555,happy valley-goose bay,53.3168,-60.3315,15.17,82,75,3.09,CA,1690269142
556,morehead city,34.7229,-76.726,29.0,87,40,3.6,US,1690269056
557,ancud,-41.8697,-73.8203,8.79,89,100,10.45,CL,1690269143
558,sierra grande,-41.606,-65.3557,5.78,61,100,10.59,AR,1690269143
559,nantucket,41.2835,-70.0995,24.03,80,47,3.98,US,1690269128
560,nemuro,43.3236,145.575,19.26,98,95,2.1,JP,1690269144
561,vorgashor,67.5833,63.95,15.64,88,100,1.65,RU,1690269144
562,sept-iles,50.2001,-66.3821,16.14,87,67,1.34,CA,1690268882
563,kill devil hills,36.0307,-75.676,25.55,94,0,0.0,US,1690269145
564,tsiombe,-25.3,45.4833,20.67,71,52,4.49,MG,1690269145
565,santo antonio,-6.3106,-35.4789,20.23,93,79,4.32,BR,1690268893
566,treinta y tres,-33.2333,-54.3833,9.62,98,100,4.55,UY,1690269146
567,ulladulla,-35.35,150.4667,12.84,74,0,2.21,AU,1690269147
568,oriximina,-1.7656,-55.8661,23.46,67,1,0.39,BR,1690269147
569,garden city,42.3256,-83.331,20.53,92,75,2.06,US,1690269078
570,zeya,53.75,127.2667,27.17,40,15,2.76,RU,1690269148
571,naze,28.3667,129.4833,27.28,81,90,4.97,JP,1690269148
572,milledgeville,33.0801,-83.2321,23.08,95,0,0.0,US,1690268862
573,onega,63.9061,38.1404,14.21,88,99,3.45,RU,1690269149
574,felege neway,6.3,36.8833,21.59,75,54,0.77,ET,1690269149
575,gamay,12.3854,125.2979,29.05,71,100,7.62,PH,1690269150
576,swakopmund,-22.6833,14.5333,11.66,90,100,0.89,NA,1690269150
577,maumere,-8.6199,122.2111,26.17,67,38,2.98,ID,1690269150
578,port douglas,-16.4833,145.4667,19.13,78,100,4.46,AU,1690269151
579,quarai,-30.3875,-56.4514,11.37,95,100,5.53,BR,1690269151
580,malvan,16.0667,73.4667,27.0,83,100,7.83,IN,1690269152
581,goz beida,13.95,20.55,30.42,53,80,4.46,TD,1690269152
582,korla,41.7597,86.1469,35.42,18,97,3.3,CN,1690269152
583,farkhar,36.5729,69.8578,34.61,18,6,4.21,AF,1690269153
584,sena madureira,-9.0656,-68.6569,21.33,70,3,1.02,BR,1690269153
585,varkaus,62.3153,27.873,16.84,78,86,0.32,FI,1690269153
586,shalqar,47.8333,59.6,33.01,23,100,3.67,KZ,1690269154
587,coquimbo,-29.9533,-71.3436,11.85,93,0,3.09,CL,1690268981
588,nikolayevsk-on-amure,53.1406,140.73,27.6,47,99,3.86,RU,1690269155
589,luoyang,34.6836,112.4536,38.45,30,20,7.06,CN,1690269155
590,ribeira brava,32.65,-17.0667,23.89,76,1,0.65,PT,1690269155
591,wheeling,42.1392,-87.929,22.03,81,0,0.0,US,1690268881
592,dean funes,-30.4204,-64.3498,5.27,89,88,3.26,AR,1690269156
593,manda,-10.4667,34.5833,24.73,46,32,1.88,TZ,1690269157
594,urangan,-25.3,152.9,19.74,59,72,9.64,AU,1690269157
595,cill airne,52.05,-9.5167,12.44,87,7,0.69,IE,1690269157
596,vologda,59.2187,39.8886,18.04,62,13,2.07,RU,1690269158
